{"type":"FeatureCollection","name":"buesos_plakate_kommunalwahl_2023","crs":{"type":"name","properties":{"name":"urn:ogc:def:crs:OGC:1.3:CRS84"}},"features":[{"type":"Feature","properties":{"id":"11","image":"","name":"Jürgensraaderstr"},"geometry":{"type":"Point","coordinates":[9.444667,54.787805]}},{"type":"Feature","properties":{"id":"12","image":"","name":"Kirche Jürgensby"},"geometry":{"type":"Point","coordinates":[9.442228,54.791119]}},{"type":"Feature","properties":{"id":"13","image":"","name":"Brixstraße"},"geometry":{"type":"Point","coordinates":[9.442413,54.788004]}},{"type":"Feature","properties":{"id":"14","image":"","name":"Bachstraße 21"},"geometry":{"type":"Point","coordinates":[9.445233,54.791672]}},{"type":"Feature","properties":{"id":"15","image":"","name":"De Lütte Koopman"},"geometry":{"type":"Point","coordinates":[9.44482,54.79023]}},{"type":"Feature","properties":{"id":"16","image":"","name":"Theater Schule Jürgensby"},"geometry":{"type":"Point","coordinates":[9.447976,54.791535]}},{"type":"Feature","properties":{"id":"17","image":"","name":"Stadion Rewe"},"geometry":{"type":"Point","coordinates":[9.454262,54.799206]}},{"type":"Feature","properties":{"id":"18","image":"","name":"Polizei twedter"},"geometry":{"type":"Point","coordinates":[9.456982,54.802014]}},{"type":"Feature","properties":{"id":"19","image":"","name":"Engelsby Rewe Siedlung"},"geometry":{"type":"Point","coordinates":[9.478561,54.792182]}},{"type":"Feature","properties":{"id":"20","image":"","name":"Tarup Nähe Gabi"},"geometry":{"type":"Point","coordinates":[9.47027,54.782547]}},{"type":"Feature","properties":{"id":"21","image":"","name":"Campus Siedlung"},"geometry":{"type":"Point","coordinates":[9.44642,54.776214]}},{"type":"Feature","properties":{"id":"22","image":"","name":"Oili Husumer Str"},"geometry":{"type":"Point","coordinates":[9.430631,54.777605]}},{"type":"Feature","properties":{"id":"23","image":"","name":"Oili Tankstelle Husumer"},"geometry":{"type":"Point","coordinates":[9.425205,54.773769]}},{"type":"Feature","properties":{"id":"24","image":"","name":"Aral Husumer Str"},"geometry":{"type":"Point","coordinates":[9.425205,54.773769]}},{"type":"Feature","properties":{"id":"25","image":"","name":"LIDL"},"geometry":{"type":"Point","coordinates":[9.434415,54.770715]}},{"type":"Feature","properties":{"id":"26","image":"","name":"Burger King"},"geometry":{"type":"Point","coordinates":[9.436202,54.76125]}},{"type":"Feature","properties":{"id":"27","image":"","name":"BüsoS"},"geometry":{"type":"Point","coordinates":[9.435616,54.76222]}},{"type":"Feature","geometry":{"type":"Point","coordinates":[9.4371560144,54.7764668261]},"properties":{"id":"1","image":""}},{"type":"Feature","geometry":{"type":"Point","coordinates":[9.465951269761137,54.78415133267433]},"properties":{"id":"2","image":""}},{"type":"Feature","geometry":{"type":"Point","coordinates":[9.47661589567906,54.78999383775635]},"properties":{"id":"3","image":""}},{"type":"Feature","geometry":{"type":"Point","coordinates":[9.472804806164492,54.80986320909607]},"properties":{"id":"4","image":""}},{"type":"Feature","geometry":{"type":"Point","coordinates":[9.463078814451121,54.812550172522556]},"properties":{"id":"5","image":""}},{"type":"Feature","geometry":{"type":"Point","coordinates":[9.455916208282682,54.80330074405851]},"properties":{"id":"6","image":""}},{"type":"Feature","geometry":{"type":"Point","coordinates":[9.439472492177792,54.79298560910695]},"properties":{"id":"7","image":""}},{"type":"Feature","geometry":{"type":"Point","coordinates":[9.44156253486294,54.78179407696729]},"properties":{"id":"8","image":""}},{"type":"Feature","geometry":{"type":"Point","coordinates":[9.435179667284169,54.775422337153024]},"properties":{"id":"9","image":""}},{"type":"Feature","geometry":{"type":"Point","coordinates":[9.430420982205483,54.79572952893714]},"properties":{"id":"10","image":""}}]}
